[{"destination": "Mumbai", "budget_category": "high", "total_budget": 50000, "per_person_budget": 16666, "transport": "Private Luxury Cab / Chauffeur", "hotel_recommendations": ["The Oberoi Mumbai"], "hotel": {"name": "The Oberoi Mumbai", "location": "Worli, Mumbai, Maharashtra 400030", "lat": 18.9269838, "lng": 72.8205846}, "itinerary": [{"day": 1, "places": [{"name": "Gateway of India", "rating": 4.5, "distance": "1.6 km", "time": "3 mins", "description": "Historic monument and iconic landmark | Best Time: Morning or Evening", "lat": 18.9219661, "lng": 72.8345657, "coordinates": null, "transport": {"mode": "Private Cab", "cost": "\u20b91500", "time": "45 mins", "route": "Worli Seaface to Colaba", "note": "Best option for comfort"}}, {"name": "Chhatrapati Shivaji Maharaj Vastu Sangrahalaya", "rating": 4.5, "distance": "1.3 km", "time": "2 mins", "description": "Museum showcasing Indian art and culture | Best Time: Morning", "lat": 18.9268772, "lng": 72.8325921, "coordinates": null, "transport": {"mode": "Metro (Worli to Dadar)", "cost": "\u20b910", "time": "10 mins", "route": "Worli to Dadar Metro Station", "note": "Efficient and affordable"}}]}, {"day": 2, "places": [{"name": "Haji Ali Dargah", "rating": 4.5, "distance": "6.3 km", "time": "12 mins", "description": "Islamic shrine and popular tourist spot | Best Time: Evening", "lat": 18.9828229, "lng": 72.8089926, "coordinates": null, "transport": {"mode": "Private Cab", "cost": "\u20b91000", "time": "30 mins", "route": "Worli Seaface to Haji Ali", "note": "Best option for comfort"}}, {"name": "Colaba Causeway", "rating": 4.5, "distance": "1.3 km", "time": "2 mins", "description": "Shopping street and nightlife hub | Best Time: Evening", "lat": 18.9176506, "lng": 72.8277167, "coordinates": null, "transport": {"mode": "Metro (Worli to Colaba)", "cost": "\u20b910", "time": "10 mins", "route": "Worli to Colaba Metro Station", "note": "Efficient and affordable"}}]}, {"day": 3, "places": [{"name": "Marine Drive", "rating": 4.5, "distance": "1.5 km", "time": "2 mins", "description": "Iconic seafront promenade and sunset spot | Best Time: Evening", "lat": 18.9398948, "lng": 72.824028, "coordinates": null, "transport": {"mode": "Private Cab", "cost": "\u20b91000", "time": "30 mins", "route": "Worli Seaface to Marine Drive", "note": "Best option for comfort"}}, {"name": "Madh Island", "rating": 4.5, "distance": "30.1 km", "time": "60 mins", "description": "Beach destination and scenic spot | Best Time: Morning", "lat": 19.1979362, "lng": 72.8002494, "coordinates": null, "transport": {"mode": "Private Cab (to Malad Station)", "cost": "\u20b92500", "time": "1 hour", "route": "Worli to Malad", "note": "Best option for comfort"}}]}, {"day": 4, "places": [{"name": "Sanjay Gandhi National Park", "rating": 4.5, "distance": "32.8 km", "time": "65 mins", "description": "National park and wildlife sanctuary | Best Time: Morning", "lat": 19.2093238, "lng": 72.9163268, "coordinates": null, "transport": {"mode": "Private Cab (to Borivali Station)", "cost": "\u20b92500", "time": "1 hour", "route": "Worli to Borivali", "note": "Best option for comfort"}}]}, {"day": 5, "places": [{"name": "Mani Bhavan", "rating": 4.5, "distance": "3.8 km", "time": "7 mins", "description": "Museum showcasing Gandhi's life and legacy | Best Time: Morning", "lat": 18.9598898, "lng": 72.8114984, "coordinates": null, "transport": {"mode": "Private Cab", "cost": "\u20b91000", "time": "30 mins", "route": "Worli Seaface to Mani Bhavan", "note": "Best option for comfort"}}]}], "cost_breakdown": {"stay": 20000, "transport": 15000, "activities": 10000, "misc": 5000}, "food_recommendations": [], "travel_tips": []}]